[{"id":"2643743","name":"London","country":"Verenigd Koninkrijk","lat":51.5085,"lon":-0.1257,"population":8961989},{"id":"2950159","name":"Berlin","country":"Duitsland","lat":52.5244,"lon":13.4105,"population":3426354},{"id":"3117735","name":"Madrid","country":"Spanje","lat":40.4165,"lon":-3.7026,"population":3255944},{"id":"703448","name":"Kyiv","country":"Oekraïne","lat":50.4547,"lon":30.5238,"population":2952301},{"id":"3169070","name":"Rome","country":"Italië","lat":41.8919,"lon":12.5113,"population":2318895},{"id":"2988507","name":"Paris","country":"Frankrijk","lat":48.8534,"lon":2.3488,"population":2138551},{"id":"2911298","name":"Hamburg","country":"Duitsland","lat":53.5507,"lon":9.993,"population":1973896},{"id":"683506","name":"Bucharest","country":"Roemenië","lat":44.4323,"lon":26.1063,"population":1877155},{"id":"625144","name":"Minsk","country":"Wit-Rusland","lat":53.9002,"lon":27.5665,"population":1742124},{"id":"3054643","name":"Budapest","country":"Hongarije","lat":47.4984,"lon":19.0404,"population":1741041},{"id":"756135","name":"Warsaw","country":"Polen","lat":52.2298,"lon":21.0118,"population":1702139},{"id":"2761369","name":"Vienna","country":"Oostenrijk","lat":48.2085,"lon":16.3721,"population":1691468},{"id":"3128760","name":"Barcelona","country":"Spanje","lat":41.3888,"lon":2.159,"population":1686208},{"id":"2673730","name":"Stockholm","country":"Zweden","lat":59.3294,"lon":18.0687,"population":1515017},{"id":"2867714","name":"Munich","country":"Duitsland","lat":48.1374,"lon":11.5755,"population":1505005},{"id":"706483","name":"Kharkiv","country":"Oekraïne","lat":49.9818,"lon":36.2548,"population":1421125},{"id":"3173435","name":"Milan","country":"Italië","lat":45.4643,"lon":9.1895,"population":1371498},{"id":"792680","name":"Belgrade","country":"Servië","lat":44.804,"lon":20.4651,"population":1273651},{"id":"3067696","name":"Prague","country":"Tsjechië","lat":50.088,"lon":14.4208,"population":1165581},{"id":"2655603","name":"Birmingham","country":"Verenigd Koninkrijk","lat":52.4814,"lon":-1.8998,"population":1157603},{"id":"2618425","name":"Copenhagen","country":"Denemarken","lat":55.6759,"lon":12.5655,"population":1153615},{"id":"727011","name":"Sofia","country":"Bulgarije","lat":42.6975,"lon":23.3241,"population":1152556},{"id":"3143244","name":"Oslo","country":"Noorwegen","lat":59.9127,"lon":10.7461,"population":1082575},{"id":"2886242","name":"Köln","country":"Duitsland","lat":50.9333,"lon":6.95,"population":1024621},{"id":"2964574","name":"Dublin","country":"Ierland","lat":53.3331,"lon":-6.2489,"population":1024027},{"id":"2800866","name":"Brussels","country":"België","lat":50.8505,"lon":4.3488,"population":1019022},{"id":"698740","name":"Odesa","country":"Oekraïne","lat":46.4857,"lon":30.7438,"population":1010537},{"id":"3046446","name":"Pest","country":"Hongarije","lat":47.5,"lon":19.0833,"population":1001748},{"id":"709930","name":"Dnipro","country":"Oekraïne","lat":48.4666,"lon":35.0407,"population":968502},{"id":"3172394","name":"Naples","country":"Italië","lat":40.8522,"lon":14.2681,"population":909048},{"id":"709717","name":"Donetsk","country":"Oekraïne","lat":48.023,"lon":37.8022,"population":901645},{"id":"2995469","name":"Marseille","country":"Frankrijk","lat":43.297,"lon":5.3811,"population":877215},{"id":"2747891","name":"Rotterdam","country":"Nederland","lat":51.9225,"lon":4.4792,"population":868135},{"id":"3165524","name":"Turin","country":"Italië","lat":45.0705,"lon":7.6868,"population":847287},{"id":"2509954","name":"Valencia","country":"Spanje","lat":39.4739,"lon":-0.3797,"population":824340},{"id":"3094802","name":"Kraków","country":"Polen","lat":50.0614,"lon":19.9366,"population":804237},{"id":"456172","name":"Riga","country":"Letland","lat":56.946,"lon":24.1059,"population":742572},{"id":"2759794","name":"Amsterdam","country":"Nederland","lat":52.374,"lon":4.8897,"population":741636},{"id":"702550","name":"Lviv","country":"Oekraïne","lat":49.8383,"lon":24.0232,"population":717273},{"id":"687700","name":"Zaporizhzhya","country":"Oekraïne","lat":47.8517,"lon":35.1171,"population":710052},{"id":"3191281","name":"Sarajevo","country":"Bosnië en Herzegovina","lat":43.8486,"lon":18.3564,"population":696731},{"id":"3104324","name":"Zaragoza","country":"Spanje","lat":41.6561,"lon":-0.8773,"population":686986},{"id":"2510911","name":"Sevilla","country":"Spanje","lat":37.3828,"lon":-5.9732,"population":686741},{"id":"3081368","name":"Wrocław","country":"Polen","lat":51.1029,"lon":17.0301,"population":672545},{"id":"264371","name":"Athens","country":"Griekenland","lat":37.9838,"lon":23.7278,"population":664046},{"id":"3186886","name":"Zagreb","country":"Kroatië","lat":45.8144,"lon":15.978,"population":663592},{"id":"658225","name":"Helsinki","country":"Finland","lat":60.1695,"lon":24.9354,"population":658864},{"id":"2925533","name":"Frankfurt am Main","country":"Duitsland","lat":50.1155,"lon":8.6842,"population":650000},{"id":"2523920","name":"Palermo","country":"Italië","lat":38.1166,"lon":13.3636,"population":648260},{"id":"3093133","name":"Łódź","country":"Polen","lat":51.7706,"lon":19.4739,"population":645693},{"id":"618426","name":"Chisinau","country":"Moldavië","lat":47.009,"lon":28.8594,"population":635994},{"id":"2648579","name":"Glasgow","country":"Verenigd Koninkrijk","lat":55.8651,"lon":-4.2576,"population":626410},{"id":"2934246","name":"Düsseldorf","country":"Duitsland","lat":51.2232,"lon":6.7793,"population":618685},{"id":"2825297","name":"Stuttgart","country":"Duitsland","lat":48.7823,"lon":9.177,"population":612663},{"id":"2711537","name":"Gothenburg","country":"Zweden","lat":57.7072,"lon":11.9668,"population":608462},{"id":"703845","name":"Kryvyy Rih","country":"Oekraïne","lat":47.9057,"lon":33.394,"population":603904},{"id":"2928810","name":"Essen","country":"Duitsland","lat":51.4566,"lon":7.0123,"population":593085},{"id":"2514256","name":"Málaga","country":"Spanje","lat":36.7202,"lon":-4.4203,"population":592346},{"id":"2935517","name":"Dortmund","country":"Duitsland","lat":51.5149,"lon":7.466,"population":588462},{"id":"3176219","name":"Genoa","country":"Italië","lat":44.4048,"lon":8.9444,"population":580097},{"id":"2643123","name":"Manchester","country":"Verenigd Koninkrijk","lat":53.4809,"lon":-2.2374,"population":568996},{"id":"2935022","name":"Dresden","country":"Duitsland","lat":51.0509,"lon":13.7383,"population":564904},{"id":"2638077","name":"Sheffield","country":"Verenigd Koninkrijk","lat":53.383,"lon":-1.4659,"population":556500},{"id":"786714","name":"Pristina","country":"Kosovo","lat":42.6727,"lon":21.1669,"population":550000},{"id":"694423","name":"Sevastopol","country":"Oekraïne","lat":44.608,"lon":33.5213,"population":547820},{"id":"2944388","name":"Bremen","country":"Duitsland","lat":53.0758,"lon":8.8072,"population":546501},{"id":"593116","name":"Vilnius","country":"Litouwen","lat":54.6892,"lon":25.2798,"population":542366},{"id":"2644688","name":"Leeds","country":"Verenigd Koninkrijk","lat":53.7965,"lon":-1.5478,"population":536280},{"id":"3088171","name":"Poznań","country":"Polen","lat":52.4069,"lon":16.9299,"population":536151},{"id":"2803138","name":"Antwerp","country":"België","lat":51.2205,"lon":4.4003,"population":529247},{"id":"2996944","name":"Lyon","country":"Frankrijk","lat":45.7491,"lon":4.8479,"population":520774},{"id":"2267057","name":"Lisbon","country":"Portugal","lat":38.7251,"lon":-9.1498,"population":517802},{"id":"2861650","name":"Nuremberg","country":"Duitsland","lat":49.4542,"lon":11.0775,"population":515543},{"id":"2910831","name":"Hannover","country":"Duitsland","lat":52.3705,"lon":9.7332,"population":515140},{"id":"2650225","name":"Edinburgh","country":"Verenigd Koninkrijk","lat":55.9521,"lon":-3.1965,"population":514990},{"id":"2972315","name":"Toulouse","country":"Frankrijk","lat":43.6043,"lon":1.4437,"population":511684},{"id":"3054667","name":"Buda","country":"Hongarije","lat":47.5,"lon":19.0333,"population":510108},{"id":"2879139","name":"Leipzig","country":"Duitsland","lat":51.3396,"lon":12.3713,"population":504971},{"id":"2934691","name":"Duisburg","country":"Duitsland","lat":51.4325,"lon":6.7652,"population":504358},{"id":"627907","name":"Homyel'","country":"Wit-Rusland","lat":52.4345,"lon":30.9754,"population":501102},{"id":"2644210","name":"Liverpool","country":"Verenigd Koninkrijk","lat":53.4106,"lon":-2.9779,"population":496770},{"id":"3099434","name":"Gdańsk","country":"Polen","lat":54.3523,"lon":18.6491,"population":487371},{"id":"2654675","name":"Bristol","country":"Verenigd Koninkrijk","lat":51.4552,"lon":-2.5966,"population":479024},{"id":"785842","name":"Skopje","country":"Noord-Macedonië","lat":41.9965,"lon":21.4314,"population":474889},{"id":"2747373","name":"The Hague","country":"Nederland","lat":52.0767,"lon":4.2986,"population":474292},{"id":"2513416","name":"Murcia","country":"Spanje","lat":37.987,"lon":-1.13,"population":471982},{"id":"700569","name":"Mykolayiv","country":"Oekraïne","lat":46.9763,"lon":31.993,"population":470011},{"id":"2512989","name":"Palma","country":"Spanje","lat":39.5694,"lon":2.6502,"population":438234},{"id":"689558","name":"Vinnytsya","country":"Oekraïne","lat":49.2322,"lon":28.4687,"population":430091},{"id":"3060972","name":"Bratislava","country":"Slowakije","lat":48.1482,"lon":17.1067,"population":423737},{"id":"3183875","name":"Tirana","country":"Albanië","lat":41.3274,"lon":19.8187,"population":418495},{"id":"2657896","name":"Zürich","country":"Zwitserland","lat":47.3667,"lon":8.55,"population":415367},{"id":"2911285","name":"Wandsbek","country":"Duitsland","lat":53.5833,"lon":10.0831,"population":411422},{"id":"6722148","name":"Saltivka","country":"Oekraïne","lat":50.0221,"lon":36.349,"population":409300},{"id":"702658","name":"Luhansk","country":"Oekraïne","lat":48.5681,"lon":39.3055,"population":397677},{"id":"3083829","name":"Szczecin","country":"Polen","lat":53.4289,"lon":14.553,"population":395513},{"id":"3181928","name":"Bologna","country":"Italië","lat":44.4938,"lon":11.3387,"population":394843},{"id":"588409","name":"Tallinn","country":"Estland","lat":59.437,"lon":24.7535,"population":394024},{"id":"2947416","name":"Bochum","country":"Duitsland","lat":51.4817,"lon":7.2165,"population":385729},{"id":"11048319","name":"Sector 3","country":"Roemenië","lat":44.4234,"lon":26.1687,"population":385439},{"id":"2515270","name":"Las Palmas de Gran Canaria","country":"Spanje","lat":28.1018,"lon":-15.4157,"population":383516},{"id":"3078610","name":"Brno","country":"Tsjechië","lat":49.1952,"lon":16.608,"population":379466},{"id":"675810","name":"Iaşi","country":"Roemenië","lat":47.1667,"lon":27.6,"population":378954},{"id":"2745912","name":"Utrecht","country":"Nederland","lat":52.0908,"lon":5.1222,"population":376435},{"id":"2653822","name":"Cardiff","country":"Verenigd Koninkrijk","lat":51.48,"lon":-3.18,"population":372089},{"id":"2644668","name":"Leicester","country":"Verenigd Koninkrijk","lat":52.6386,"lon":-1.1317,"population":368600},{"id":"13546519","name":"Desna","country":"Oekraïne","lat":50.5221,"lon":30.6823,"population":368500},{"id":"11048323","name":"Sector 6","country":"Roemenië","lat":44.4358,"lon":26.0165,"population":367760},{"id":"3176959","name":"Florence","country":"Italië","lat":43.7792,"lon":11.2463,"population":367150},{"id":"2654993","name":"Bradford","country":"Verenigd Koninkrijk","lat":53.7939,"lon":-1.7521,"population":366187},{"id":"2692969","name":"Malmö","country":"Zweden","lat":55.6059,"lon":13.0007,"population":362133},{"id":"627904","name":"Hrodna","country":"Wit-Rusland","lat":53.6758,"lon":23.8289,"population":361115},{"id":"2805753","name":"Wuppertal","country":"Duitsland","lat":51.2563,"lon":7.1482,"population":360797},{"id":"620127","name":"Vitebsk","country":"Wit-Rusland","lat":55.1904,"lon":30.2049,"population":358395},{"id":"13546518","name":"Dniprovskyi","country":"Oekraïne","lat":50.4537,"lon":30.6015,"population":357900},{"id":"625665","name":"Mahilyow","country":"Wit-Rusland","lat":53.9088,"lon":30.3404,"population":353110},{"id":"13580034","name":"Pravyi Bereh","country":"Oekraïne","lat":47.115,"lon":37.5852,"population":352088},{"id":"2521978","name":"Alicante","country":"Spanje","lat":38.3452,"lon":-0.4815,"population":348901},{"id":"2655984","name":"Belfast","country":"Verenigd Koninkrijk","lat":54.5968,"lon":-5.9254,"population":348005},{"id":"3128026","name":"Bilbao","country":"Spanje","lat":43.2627,"lon":-2.9253,"population":347342},{"id":"2652221","name":"Coventry","country":"Verenigd Koninkrijk","lat":52.4066,"lon":-1.5122,"population":345324},{"id":"629634","name":"Brest","country":"Wit-Rusland","lat":52.1089,"lon":23.7175,"population":344470},{"id":"13580095","name":"Darnytsya","country":"Oekraïne","lat":50.416,"lon":30.6953,"population":343384},{"id":"2990440","name":"Nice","country":"Frankrijk","lat":43.7031,"lon":7.2661,"population":342669},{"id":"702320","name":"Makiyivka","country":"Oekraïne","lat":48.0478,"lon":37.9258,"population":338968},{"id":"693805","name":"Simferopol","country":"Oekraïne","lat":44.9572,"lon":34.1108,"population":336460},{"id":"765876","name":"Lublin","country":"Polen","lat":51.2506,"lon":22.5701,"population":336339},{"id":"2949186","name":"Bielefeld","country":"Duitsland","lat":52.0333,"lon":8.5333,"population":331906},{"id":"2946447","name":"Bonn","country":"Duitsland","lat":50.7344,"lon":7.0955,"population":330579},{"id":"3102014","name":"Bydgoszcz","country":"Polen","lat":53.1235,"lon":18.0076,"population":330038},{"id":"728193","name":"Plovdiv","country":"Bulgarije","lat":42.1539,"lon":24.75,"population":329489},{"id":"2654789","name":"Brent","country":"Verenigd Koninkrijk","lat":51.5531,"lon":-0.3023,"population":329100},{"id":"2519240","name":"Córdoba","country":"Spanje","lat":37.8916,"lon":-4.7728,"population":325708},{"id":"2655613","name":"Birkenhead","country":"Verenigd Koninkrijk","lat":53.3934,"lon":-3.0148,"population":325264},{"id":"2990969","name":"Nantes","country":"Frankrijk","lat":47.2172,"lon":-1.5534,"population":325070},{"id":"660158","name":"Espoo","country":"Finland","lat":60.2052,"lon":24.6522,"population":323910},{"id":"2641170","name":"Nottingham","country":"Verenigd Koninkrijk","lat":52.9536,"lon":-1.1505,"population":323632},{"id":"2646003","name":"Islington","country":"Verenigd Koninkrijk","lat":51.5362,"lon":-0.103,"population":319143},{"id":"726050","name":"Varna","country":"Bulgarije","lat":43.2191,"lon":27.9102,"population":318737},{"id":"12278193","name":"Marne La Vallée","country":"Frankrijk","lat":48.8358,"lon":2.6424,"population":318325},{"id":"2639577","name":"Reading","country":"Verenigd Koninkrijk","lat":51.4562,"lon":-0.9711,"population":318014},{"id":"680963","name":"Constanţa","country":"Roemenië","lat":44.1807,"lon":28.6343,"population":317832},{"id":"734077","name":"Thessaloníki","country":"Griekenland","lat":40.6407,"lon":22.9349,"population":317778},{"id":"3182351","name":"Bari","country":"Italië","lat":41.1207,"lon":16.8698,"population":316491},{"id":"8354626","name":"Hamburg-Nord","country":"Duitsland","lat":53.5894,"lon":9.984,"population":315514},{"id":"2645425","name":"Kingston upon Hull","country":"Verenigd Koninkrijk","lat":53.7446,"lon":-0.3352,"population":314018},{"id":"2639912","name":"Preston","country":"Verenigd Koninkrijk","lat":53.7628,"lon":-2.7045,"population":313332},{"id":"2525068","name":"Catania","country":"Italië","lat":37.4922,"lon":15.0704,"population":311584},{"id":"2867543","name":"Münster","country":"Duitsland","lat":51.9624,"lon":7.6257,"population":308258},{"id":"2873891","name":"Mannheim","country":"Duitsland","lat":49.4891,"lon":8.4669,"population":307960},{"id":"2778067","name":"Graz","country":"Oostenrijk","lat":47.0673,"lon":15.442,"population":303270},{"id":"2911288","name":"Hamburg-Mitte","country":"Duitsland","lat":53.55,"lon":10.0167,"population":301231},{"id":"2954172","name":"Augsburg","country":"Duitsland","lat":48.3715,"lon":10.8985,"population":301105},{"id":"3106672","name":"Valladolid","country":"Spanje","lat":41.6554,"lon":-4.7235,"population":300618},{"id":"2636432","name":"Swansea","country":"Verenigd Koninkrijk","lat":51.6208,"lon":-3.9432,"population":300352},{"id":"2641673","name":"Newcastle upon Tyne","country":"Verenigd Koninkrijk","lat":54.9733,"lon":-1.614,"population":300125},{"id":"776069","name":"Białystok","country":"Polen","lat":53.1333,"lon":23.1643,"population":295683},{"id":"2637433","name":"Southend-on-Sea","country":"Verenigd Koninkrijk","lat":51.5378,"lon":0.7143,"population":295310},{"id":"3161732","name":"Bergen","country":"Noorwegen","lat":60.393,"lon":5.3242,"population":294029},{"id":"3105976","name":"Vigo","country":"Spanje","lat":42.2328,"lon":-8.7226,"population":293642},{"id":"11048318","name":"Sector 2","country":"Roemenië","lat":44.4528,"lon":26.1332,"population":290507},{"id":"598316","name":"Kaunas","country":"Litouwen","lat":54.9016,"lon":23.9091,"population":289380},{"id":"2809346","name":"Wiesbaden","country":"Duitsland","lat":50.086,"lon":8.2444,"population":288850},{"id":"11048320","name":"Sector 4","country":"Roemenië","lat":44.3757,"lon":26.1209,"population":287828},{"id":"2911287","name":"Marienthal","country":"Duitsland","lat":53.5667,"lon":10.0833,"population":287101},{"id":"3096472","name":"Katowice","country":"Polen","lat":50.2597,"lon":19.0217,"population":286960},{"id":"681290","name":"Cluj-Napoca","country":"Roemenië","lat":46.7667,"lon":23.6,"population":286598},{"id":"2624652","name":"Århus","country":"Denemarken","lat":56.1567,"lon":10.2108,"population":285273},{"id":"2654710","name":"Brighton","country":"Verenigd Koninkrijk","lat":50.8284,"lon":-0.1395,"population":283870},{"id":"2892794","name":"Karlsruhe","country":"Duitsland","lat":49.0094,"lon":8.4044,"population":283799},{"id":"710735","name":"Chernihiv","country":"Oekraïne","lat":51.5054,"lon":31.2866,"population":282747},{"id":"3068799","name":"Ostrava","country":"Tsjechië","lat":49.8347,"lon":18.282,"population":279791},{"id":"696643","name":"Poltava","country":"Oekraïne","lat":49.5892,"lon":34.5537,"population":279593},{"id":"6697759","name":"South Dublin","country":"Ierland","lat":53.2903,"lon":-6.3415,"population":278749},{"id":"2973783","name":"Strasbourg","country":"Frankrijk","lat":48.5839,"lon":7.7455,"population":274845},{"id":"706369","name":"Khmelnytskyi","country":"Oekraïne","lat":49.4183,"lon":26.9794,"population":274452},{"id":"3196359","name":"Ljubljana","country":"Slovenië","lat":46.0511,"lon":14.5051,"population":272220},{"id":"3121424","name":"Gijón","country":"Spanje","lat":43.5357,"lon":-5.6615,"population":271780},{"id":"11048322","name":"Sector 5","country":"Roemenië","lat":44.3881,"lon":26.0714,"population":271575},{"id":"2651347","name":"Derby","country":"Verenigd Koninkrijk","lat":52.9228,"lon":-1.4766,"population":270468},{"id":"2921466","name":"Gelsenkirchen","country":"Duitsland","lat":51.5051,"lon":7.0965,"population":270028},{"id":"710791","name":"Cherkasy","country":"Oekraïne","lat":49.4445,"lon":32.0574,"population":269836},{"id":"2637487","name":"Southampton","country":"Verenigd Koninkrijk","lat":50.904,"lon":-1.4043,"population":269781},{"id":"2911293","name":"Eimsbüttel","country":"Duitsland","lat":53.5742,"lon":9.9568,"population":269118},{"id":"6544100","name":"Eixample","country":"Spanje","lat":41.389,"lon":2.1618,"population":266477},{"id":"3031582","name":"Bordeaux","country":"Frankrijk","lat":44.8412,"lon":-0.5805,"population":265328},{"id":"3247449","name":"Aachen","country":"Duitsland","lat":50.7766,"lon":6.0834,"population":265208},{"id":"2797656","name":"Gent","country":"België","lat":51.05,"lon":3.7167,"population":265086},{"id":"710719","name":"Chernivtsi","country":"Oekraïne","lat":48.2904,"lon":25.9324,"population":264298},{"id":"2633691","name":"Wolverhampton","country":"Verenigd Koninkrijk","lat":52.5855,"lon":-2.123,"population":263700},{"id":"2869894","name":"Mönchengladbach","country":"Duitsland","lat":51.1854,"lon":6.4417,"population":261742},{"id":"686967","name":"Zhytomyr","country":"Oekraïne","lat":50.2623,"lon":28.6791,"population":261624},{"id":"634963","name":"Tampere","country":"Finland","lat":61.4991,"lon":23.7871,"population":260646},{"id":"2640194","name":"Plymouth","country":"Verenigd Koninkrijk","lat":50.3715,"lon":-4.143,"population":260203},{"id":"2636841","name":"Stoke-on-Trent","country":"Verenigd Koninkrijk","lat":53.0042,"lon":-2.1854,"population":258366},{"id":"3164527","name":"Verona","country":"Italië","lat":45.4385,"lon":10.9938,"population":258031},{"id":"3104499","name":"Gasteiz / Vitoria","country":"Spanje","lat":42.85,"lon":-2.6727,"population":257407},{"id":"3120619","name":"L'Hospitalet de Llobregat","country":"Spanje","lat":41.3597,"lon":2.1003,"population":257038},{"id":"3099424","name":"Gdynia","country":"Polen","lat":54.5189,"lon":18.5319,"population":257000},{"id":"6544489","name":"Latina","country":"Spanje","lat":40.389,"lon":-3.7457,"population":256644},{"id":"692194","name":"Sumy","country":"Oekraïne","lat":50.9174,"lon":34.7991,"population":256474},{"id":"2642465","name":"Milton Keynes","country":"Verenigd Koninkrijk","lat":52.0417,"lon":-0.7558,"population":256385},{"id":"6544493","name":"Carabanchel","country":"Spanje","lat":40.3909,"lon":-3.7242,"population":253678},{"id":"683844","name":"Braşov","country":"Roemenië","lat":45.6486,"lon":25.6061,"population":253200},{"id":"632453","name":"Vantaa","country":"Finland","lat":60.2941,"lon":25.041,"population":252724},{"id":"2735943","name":"Porto","country":"Portugal","lat":41.1485,"lon":-8.611,"population":252687},{"id":"2891122","name":"Kiel","country":"Duitsland","lat":54.3213,"lon":10.1349,"population":252668},{"id":"665087","name":"Timişoara","country":"Roemenië","lat":45.7537,"lon":21.2257,"population":250849},{"id":"3119841","name":"A Coruña","country":"Spanje","lat":43.3713,"lon":-8.396,"population":250438},{"id":"2911296","name":"Altona","country":"Duitsland","lat":53.55,"lon":9.9333,"population":250192},{"id":"787657","name":"Niš","country":"Servië","lat":43.3247,"lon":21.9033,"population":250000},{"id":"2992166","name":"Montpellier","country":"Frankrijk","lat":43.6109,"lon":3.8763,"population":248252},{"id":"3100946","name":"Częstochowa","country":"Polen","lat":50.7965,"lon":19.1241,"population":248125},{"id":"2634341","name":"City of Westminster","country":"Verenigd Koninkrijk","lat":51.4975,"lon":-0.1357,"population":247614},{"id":"2940132","name":"Chemnitz","country":"Duitsland","lat":50.8357,"lon":12.9292,"population":247220},{"id":"2641430","name":"Northampton","country":"Verenigd Koninkrijk","lat":52.25,"lon":-0.8833,"population":245899},{"id":"2755251","name":"Groningen","country":"Nederland","lat":53.2192,"lon":6.5667,"population":244807},{"id":"2945024","name":"Braunschweig","country":"Duitsland","lat":52.2659,"lon":10.5267,"population":244715},{"id":"2874545","name":"Magdeburg","country":"Duitsland","lat":52.1313,"lon":11.6319,"population":244329},{"id":"3112737","name":"Puente de Vallecas","country":"Spanje","lat":40.3935,"lon":-3.662,"population":244151},{"id":"695594","name":"Rivne","country":"Oekraïne","lat":50.6204,"lon":26.237,"population":243873},{"id":"688758","name":"Vyhurivshchyna-Troyeshchyna","country":"Oekraïne","lat":50.5114,"lon":30.6025,"population":240000},{"id":"707753","name":"Horlivka","country":"Oekraïne","lat":48.2999,"lon":38.0171,"population":239828},{"id":"8519916","name":"Obolon","country":"Oekraïne","lat":50.5132,"lon":30.5055,"population":239500},{"id":"3121969","name":"Fuencarral","country":"Spanje","lat":40.5,"lon":-3.6833,"population":238765},{"id":"2998324","name":"Lille","country":"Frankrijk","lat":50.6339,"lon":3.0551,"population":238695},{"id":"707471","name":"Ivano-Frankivsk","country":"Oekraïne","lat":48.9231,"lon":24.7125,"population":238196},{"id":"2884509","name":"Krefeld","country":"Duitsland","lat":51.3364,"lon":6.5538,"population":237984},{"id":"2911522","name":"Halle (Saale)","country":"Duitsland","lat":51.4816,"lon":11.9795,"population":237865},{"id":"2925177","name":"Freiburg","country":"Duitsland","lat":47.9959,"lon":7.8522,"population":237460},{"id":"2641022","name":"Oldham","country":"Verenigd Koninkrijk","lat":53.5405,"lon":-2.1183,"population":237110},{"id":"3193044","name":"Podgorica","country":"Montenegro","lat":42.4412,"lon":19.2631,"population":236852},{"id":"6544105","name":"Sant Martí","country":"Spanje","lat":41.4181,"lon":2.1993,"population":235719},{"id":"2756253","name":"Eindhoven","country":"Nederland","lat":51.4408,"lon":5.4778,"population":235691},{"id":"2518559","name":"Elche","country":"Spanje","lat":38.2622,"lon":-0.7011,"population":234765},{"id":"680332","name":"Craiova","country":"Roemenië","lat":44.3167,"lon":23.8,"population":234140},{"id":"2517117","name":"Granada","country":"Spanje","lat":37.1882,"lon":-3.6067,"population":233532},{"id":"701822","name":"Mariupol","country":"Oekraïne","lat":47.0951,"lon":37.5413,"population":230000},{"id":"2970479","name":"Paris 15 Vaugirard","country":"Frankrijk","lat":48.8412,"lon":2.3003,"population":229713},{"id":"3124964","name":"Ciudad Lineal","country":"Spanje","lat":40.4451,"lon":-3.6513,"population":228171},{"id":"2655775","name":"Bexley","country":"Verenigd Koninkrijk","lat":51.4416,"lon":0.1487,"population":228000},{"id":"2983990","name":"Rennes","country":"Frankrijk","lat":48.1111,"lon":-1.6743,"population":227830},{"id":"3085128","name":"Sosnowiec","country":"Polen","lat":50.2868,"lon":19.1039,"population":227295},{"id":"2864072","name":"Neue Neustadt","country":"Duitsland","lat":52.15,"lon":11.6333,"population":226851},{"id":"709932","name":"Kamyanske","country":"Oekraïne","lat":48.5172,"lon":34.6062,"population":226845},{"id":"760778","name":"Radom","country":"Polen","lat":51.4025,"lon":21.1471,"population":226794},{"id":"11048317","name":"Sector 1","country":"Roemenië","lat":44.4924,"lon":26.0483,"population":225453},{"id":"2643339","name":"Luton","country":"Verenigd Koninkrijk","lat":51.8797,"lon":-0.4175,"population":225262},{"id":"691650","name":"Ternopil","country":"Oekraïne","lat":49.554,"lon":25.5907,"population":225238},{"id":"724443","name":"Košice","country":"Slowakije","lat":48.7144,"lon":21.258,"population":225044},{"id":"704147","name":"Kremenchuk","country":"Oekraïne","lat":49.0625,"lon":33.4048,"population":224997},{"id":"2874225","name":"Mainz","country":"Duitsland","lat":49.9819,"lon":8.2801,"population":222889},{"id":"2746301","name":"Tilburg","country":"Nederland","lat":51.5555,"lon":5.0913,"population":221947},{"id":"3204541","name":"Banja Luka","country":"Bosnië en Herzegovina","lat":44.7788,"lon":17.2063,"population":221106},{"id":"8285534","name":"Fuencarral-El Pardo","country":"Spanje","lat":40.4984,"lon":-3.7314,"population":220085},{"id":"13546521","name":"Shevchenkivskyi","country":"Oekraïne","lat":50.4641,"lon":30.4658,"population":220077},{"id":"3114711","name":"Oviedo","country":"Spanje","lat":43.3603,"lon":-5.8448,"population":220027},{"id":"2524170","name":"Messina","country":"Italië","lat":38.1939,"lon":15.5526,"population":219948},{"id":"705812","name":"Kropyvnytskyi","country":"Oekraïne","lat":48.5083,"lon":32.2662,"population":219676},{"id":"2860410","name":"Oberhausen","country":"Duitsland","lat":51.4781,"lon":6.8625,"population":219176},{"id":"2929670","name":"Erfurt","country":"Duitsland","lat":50.9773,"lon":11.0354,"population":218793},{"id":"3108286","name":"Terrassa","country":"Spanje","lat":41.5667,"lon":2.0167,"population":218535},{"id":"2656333","name":"Barking","country":"Verenigd Koninkrijk","lat":51.5333,"lon":0.0833,"population":218534},{"id":"677697","name":"Galaţi","country":"Roemenië","lat":45.4369,"lon":28.0503,"population":217851},{"id":"3129028","name":"Badalona","country":"Spanje","lat":41.45,"lon":2.2474,"population":217741},{"id":"764484","name":"Mokotów","country":"Polen","lat":52.1934,"lon":21.0349,"population":217683},{"id":"3133880","name":"Trondheim","country":"Noorwegen","lat":63.4305,"lon":10.3951,"population":216518},{"id":"643492","name":"Oulu","country":"Finland","lat":65.0124,"lon":25.4682,"population":216066},{"id":"702569","name":"Lutsk","country":"Oekraïne","lat":50.7578,"lon":25.3502,"population":215986},{"id":"11777624","name":"Archway","country":"Verenigd Koninkrijk","lat":51.5673,"lon":-0.1341,"population":215667},{"id":"3194360","name":"Novi Sad","country":"Servië","lat":45.2517,"lon":19.8369,"population":215400},{"id":"2520058","name":"Cartagena","country":"Spanje","lat":37.602,"lon":-0.984,"population":213943},{"id":"2516326","name":"Jerez de la Frontera","country":"Spanje","lat":36.6865,"lon":-6.1361,"population":212879},{"id":"665004","name":"Târgu Mureş","country":"Roemenië","lat":46.5425,"lon":24.5575,"population":212752},{"id":"2875601","name":"Lübeck","country":"Duitsland","lat":53.8689,"lon":10.6873,"population":212207},{"id":"3111199","name":"Sabadell","country":"Spanje","lat":41.5433,"lon":2.1094,"population":211734},{"id":"2511174","name":"Santa Cruz de Tenerife","country":"Spanje","lat":28.4682,"lon":-16.2546,"population":211359},{"id":"732770","name":"Burgas","country":"Bulgarije","lat":42.5065,"lon":27.4689,"population":210646},{"id":"3114472","name":"Pamplona","country":"Spanje","lat":42.8169,"lon":-1.6432,"population":208243},{"id":"2639996","name":"Portsmouth","country":"Verenigd Koninkrijk","lat":50.799,"lon":-1.0913,"population":208100},{"id":"630468","name":"Bobruysk","country":"Wit-Rusland","lat":53.1464,"lon":29.2055,"population":207351},{"id":"712165","name":"Bila Tserkva","country":"Oekraïne","lat":49.8004,"lon":30.1285,"population":207273},{"id":"3116025","name":"Móstoles","country":"Spanje","lat":40.3223,"lon":-3.865,"population":207095},{"id":"633679","name":"Turku","country":"Finland","lat":60.4515,"lon":22.2687,"population":206655},{"id":"2772400","name":"Linz","country":"Oostenrijk","lat":48.3064,"lon":14.2861,"population":204846},{"id":"3165185","name":"Trieste","country":"Italië","lat":45.6495,"lon":13.7768,"population":204338},{"id":"3171728","name":"Padua","country":"Italië","lat":45.408,"lon":11.8859,"population":203725},{"id":"721472","name":"Debrecen","country":"Hongarije","lat":47.5317,"lon":21.6244,"population":202402},{"id":"8063098","name":"Favoriten","country":"Oostenrijk","lat":48.1612,"lon":16.3823,"population":201882},{"id":"2660646","name":"Geneva","country":"Zwitserland","lat":46.2022,"lon":6.1457,"population":201741},{"id":"2636389","name":"Swindon","country":"Verenigd Koninkrijk","lat":51.558,"lon":-1.7812,"population":201669},{"id":"146268","name":"Nicosia","country":"Cyprus","lat":35.1728,"lon":33.354,"population":200452},{"id":"3181554","name":"Brescia","country":"Italië","lat":45.5356,"lon":10.2147,"population":200423},{"id":"2800481","name":"Charleroi","country":"België","lat":50.4114,"lon":4.4445,"population":200132},{"id":"13561808","name":"Rayon KTZ","country":"Oekraïne","lat":49.9435,"lon":36.3696,"population":200000},{"id":"2650839","name":"Dudley","country":"Verenigd Koninkrijk","lat":52.5,"lon":-2.0833,"population":199059},{"id":"2912621","name":"Hagen","country":"Duitsland","lat":51.3608,"lon":7.4717,"population":198972},{"id":"3099230","name":"Gliwice","country":"Polen","lat":50.2976,"lon":18.6766,"population":198835},{"id":"2657832","name":"Aberdeen","country":"Verenigd Koninkrijk","lat":57.1437,"lon":-2.0981,"population":198590},{"id":"3165926","name":"Taranto","country":"Italië","lat":40.4644,"lon":17.2471,"population":198585},{"id":"759734","name":"Rzeszów","country":"Polen","lat":50.0413,"lon":21.999,"population":198317},{"id":"2844588","name":"Rostock","country":"Duitsland","lat":54.0887,"lon":12.1405,"population":198293},{"id":"3171457","name":"Parma","country":"Italië","lat":44.7993,"lon":10.3262,"population":198292},{"id":"2892518","name":"Kassel","country":"Duitsland","lat":51.3167,"lon":9.5,"population":197230},{"id":"3083271","name":"Toruń","country":"Polen","lat":53.0138,"lon":18.5981,"population":196935},{"id":"2521886","name":"Almería","country":"Spanje","lat":36.8381,"lon":-2.4597,"population":196851},{"id":"2984114","name":"Reims","country":"Frankrijk","lat":49.2653,"lon":4.0285,"population":196565},{"id":"3185728","name":"Durrës","country":"Albanië","lat":41.3235,"lon":19.4547,"population":195920},{"id":"2792413","name":"Liège","country":"België","lat":50.6337,"lon":5.5675,"population":195278},{"id":"3169921","name":"Prato","country":"Italië","lat":43.8805,"lon":11.097,"population":195089},{"id":"3130616","name":"Alcalá de Henares","country":"Spanje","lat":40.4821,"lon":-3.36,"population":193751},{"id":"2742032","name":"Braga","country":"Portugal","lat":41.5514,"lon":-8.4231,"population":193324},{"id":"769250","name":"Kielce","country":"Polen","lat":50.8703,"lon":20.6275,"population":192468},{"id":"3080985","name":"Zabrze","country":"Polen","lat":50.3249,"lon":18.7858,"population":192177},{"id":"3121960","name":"Fuenlabrada","country":"Spanje","lat":40.2842,"lon":-3.7942,"population":190496},{"id":"2965140","name":"Cork","country":"Ierland","lat":51.898,"lon":-8.4706,"population":190384},{"id":"3101950","name":"Bytom","country":"Polen","lat":50.348,"lon":18.9328,"population":189186},{"id":"3118594","name":"Leganés","country":"Spanje","lat":40.3272,"lon":-3.7635,"population":188425},{"id":"2636503","name":"Sutton","country":"Verenigd Koninkrijk","lat":51.35,"lon":-0.2,"population":187600},{"id":"3121437","name":"Getafe","country":"Spanje","lat":40.3057,"lon":-3.733,"population":187525},{"id":"11903636","name":"Donaustadt","country":"Oostenrijk","lat":48.2333,"lon":16.46,"population":187007},{"id":"3003796","name":"Le Havre","country":"Frankrijk","lat":49.4935,"lon":0.1079,"population":185972},{"id":"13607660","name":"Verhunskyi","country":"Oekraïne","lat":48.5857,"lon":39.3716,"population":185593},{"id":"3110044","name":"Donostia / San Sebastián","country":"Spanje","lat":43.3128,"lon":-1.975,"population":185357},{"id":"2994540","name":"Paris 20 Ménilmontant","country":"Frankrijk","lat":48.8646,"lon":2.3984,"population":185140},{"id":"2852458","name":"Potsdam","country":"Duitsland","lat":52.3989,"lon":13.0657,"population":184754},{"id":"3173331","name":"Modena","country":"Italië","lat":44.6478,"lon":10.9254,"population":184732},{"id":"2758401","name":"Breda","country":"Nederland","lat":51.5866,"lon":4.776,"population":184126},{"id":"8555643","name":"Cergy-Pontoise","country":"Frankrijk","lat":49.0389,"lon":2.0781,"population":183430},{"id":"2638785","name":"St Helens","country":"Verenigd Koninkrijk","lat":53.45,"lon":-2.7333,"population":183200},{"id":"3029374","name":"Paris 18 Buttes-Montmartre","country":"Frankrijk","lat":48.8925,"lon":2.3444,"population":183127},{"id":"6544104","name":"Sants-Montjuïc","country":"Spanje","lat":41.3726,"lon":2.1546,"population":183120},{"id":"671768","name":"Oradea","country":"Roemenië","lat":47.0458,"lon":21.9183,"population":183105},{"id":"2842647","name":"Saarbrücken","country":"Duitsland","lat":49.2326,"lon":7.0098,"population":182971},{"id":"2523630","name":"Reggio Calabria","country":"Italië","lat":38.1105,"lon":15.6613,"population":182455},{"id":"3169694","name":"Quarto Oggiaro","country":"Italië","lat":45.5131,"lon":9.1434,"population":182118},{"id":"3015772","name":"Paris 13 Gobelins","country":"Frankrijk","lat":48.8322,"lon":2.3561,"population":181271},{"id":"2615876","name":"Odense","country":"Denemarken","lat":55.3959,"lon":10.3883,"population":180863},{"id":"670474","name":"Ploieşti","country":"Roemenië","lat":44.95,"lon":26.0167,"population":180540},{"id":"11778464","name":"Borshchahivka","country":"Oekraïne","lat":50.4316,"lon":30.3899,"population":179900},{"id":"6545348","name":"Praga Południe","country":"Polen","lat":52.2442,"lon":21.0855,"population":179836},{"id":"13608465","name":"Desnyanskyi","country":"Oekraïne","lat":51.5063,"lon":31.3168,"population":179600},{"id":"13608468","name":"Novozavodskyi","country":"Oekraïne","lat":51.4893,"lon":31.2563,"population":179600},{"id":"13607722","name":"Tsentralnyi","country":"Oekraïne","lat":47.0983,"lon":37.5484,"population":179582},{"id":"2911240","name":"Hamm","country":"Duitsland","lat":51.6803,"lon":7.8209,"population":178967},{"id":"2271772","name":"Amadora","country":"Portugal","lat":38.7538,"lon":-9.2308,"population":178858},{"id":"2646057","name":"Ipswich","country":"Verenigd Koninkrijk","lat":52.0592,"lon":1.1555,"population":178835},{"id":"3029372","name":"Paris 19 Buttes-Chaumont","country":"Frankrijk","lat":48.8817,"lon":2.3822,"population":178691},{"id":"12808673","name":"Paris 13e Arrondissement","country":"Frankrijk","lat":48.8262,"lon":2.3599,"population":177833},{"id":"2661604","name":"Basel","country":"Zwitserland","lat":47.5584,"lon":7.5733,"population":177595},{"id":"2750053","name":"Nijmegen","country":"Nederland","lat":51.8425,"lon":5.8528,"population":177359},{"id":"2666199","name":"Uppsala","country":"Zweden","lat":59.8588,"lon":17.6389,"population":177074},{"id":"3103402","name":"Bielsko-Biala","country":"Polen","lat":49.8225,"lon":19.0469,"population":176515},{"id":"2759879","name":"Almere Stad","country":"Nederland","lat":52.3702,"lon":5.2141,"population":176432},{"id":"3127461","name":"Burgos","country":"Spanje","lat":42.3411,"lon":-3.7018,"population":176418},{"id":"2980291","name":"Saint-Étienne","country":"Frankrijk","lat":45.4339,"lon":4.39,"population":176280},{"id":"2633948","name":"Wigan","country":"Verenigd Koninkrijk","lat":53.543,"lon":-2.6371,"population":175405},{"id":"3109718","name":"Santander","country":"Spanje","lat":43.4659,"lon":-3.8049,"population":173635},{"id":"2651817","name":"Croydon","country":"Verenigd Koninkrijk","lat":51.3833,"lon":-0.1,"population":173314},{"id":"2867838","name":"Mülheim","country":"Duitsland","lat":51.4322,"lon":6.8797,"population":173050},{"id":"2522258","name":"Albacete","country":"Spanje","lat":38.9942,"lon":-1.8564,"population":173050},{"id":"3130564","name":"Alcorcón","country":"Spanje","lat":40.3458,"lon":-3.8249,"population":172384},{"id":"2634739","name":"Warrington","country":"Verenigd Koninkrijk","lat":53.3925,"lon":-2.5802,"population":172330},{"id":"598098","name":"Klaipėda","country":"Litouwen","lat":55.7068,"lon":21.1391,"population":172292},{"id":"2634853","name":"Walsall","country":"Verenigd Koninkrijk","lat":52.5853,"lon":-1.984,"population":172141},{"id":"2905891","name":"Herne","country":"Duitsland","lat":51.5388,"lon":7.2257,"population":172108},{"id":"2643097","name":"Mansfield","country":"Verenigd Koninkrijk","lat":53.1333,"lon":-1.2,"population":171958},{"id":"3169522","name":"Reggio nell'Emilia","country":"Italië","lat":44.6983,"lon":10.6312,"population":171944},{"id":"2519752","name":"Castelló de la Plana","country":"Spanje","lat":39.9857,"lon":-0.0493,"population":171857},{"id":"786712","name":"Prizren","country":"Kosovo","lat":42.2139,"lon":20.7397,"population":171464},{"id":"630429","name":"Baranovichi","country":"Wit-Rusland","lat":53.1325,"lon":26.0077,"population":171361},{"id":"12747032","name":"East Helsinki","country":"Finland","lat":60.2104,"lon":25.0829,"population":170557},{"id":"2636531","name":"Sunderland","country":"Verenigd Koninkrijk","lat":54.9046,"lon":-1.3822,"population":170134},{"id":"763166","name":"Olsztyn","country":"Polen","lat":53.7838,"lon":20.4927,"population":169793},{"id":"2910685","name":"Harburg","country":"Duitsland","lat":53.4606,"lon":9.9839,"population":169221},{"id":"686254","name":"Arad","country":"Roemenië","lat":46.1833,"lon":21.3167,"population":169065},{"id":"3068160","name":"Pilsen","country":"Tsjechië","lat":49.7475,"lon":13.3776,"population":168733},{"id":"2972328","name":"Toulon","country":"Frankrijk","lat":43.1244,"lon":5.9284,"population":168701},{"id":"3037656","name":"Angers","country":"Frankrijk","lat":47.4716,"lon":-0.552,"population":168279},{"id":"2646277","name":"Ilford","country":"Verenigd Koninkrijk","lat":51.5577,"lon":0.0728,"population":168168},{"id":"6544103","name":"Horta-Guinardó","country":"Spanje","lat":41.4185,"lon":2.1677,"population":168092},{"id":"255683","name":"Pátra","country":"Griekenland","lat":38.2462,"lon":21.7351,"population":168034},{"id":"13561146","name":"Rutchenkivskyi","country":"Oekraïne","lat":47.976,"lon":37.6968,"population":168029},{"id":"13546531","name":"Fortechnyi","country":"Oekraïne","lat":48.4986,"lon":32.2537,"population":167451},{"id":"2938913","name":"Darmstadt","country":"Duitsland","lat":49.8717,"lon":8.6503,"population":167029},{"id":"2694762","name":"Linköping","country":"Zweden","lat":58.4109,"lon":15.6216,"population":166673},{"id":"2856883","name":"Osnabrück","country":"Duitsland","lat":52.2726,"lon":8.0498,"population":166462},{"id":"6252065","name":"Nou Barris","country":"Spanje","lat":41.4416,"lon":2.1773,"population":166310},{"id":"2637627","name":"Slough","country":"Verenigd Koninkrijk","lat":51.5095,"lon":-0.5954,"population":164793},{"id":"2864695","name":"Neukölln","country":"Duitsland","lat":52.4772,"lon":13.4313,"population":164636},{"id":"3186573","name":"Zenica","country":"Bosnië en Herzegovina","lat":44.2017,"lon":17.904,"population":164423},{"id":"2831580","name":"Solingen","country":"Duitsland","lat":51.1734,"lon":7.0845,"population":164359},{"id":"255274","name":"Piraeus","country":"Griekenland","lat":37.942,"lon":23.6462,"population":163688},{"id":"2655095","name":"Bournemouth","country":"Verenigd Koninkrijk","lat":50.7205,"lon":-1.8795,"population":163600},{"id":"2640354","name":"Peterborough","country":"Verenigd Koninkrijk","lat":52.5736,"lon":-0.2478,"population":163379},{"id":"2875376","name":"Ludwigshafen am Rhein","country":"Duitsland","lat":49.4812,"lon":8.4464,"population":163196},{"id":"2779469","name":"Floridsdorf","country":"Oostenrijk","lat":48.25,"lon":16.4,"population":162779},{"id":"2878234","name":"Leverkusen","country":"Duitsland","lat":51.0303,"lon":6.9843,"population":162738},{"id":"2755003","name":"Haarlem","country":"Nederland","lat":52.3808,"lon":4.6368,"population":162543},{"id":"2759661","name":"Arnhem","country":"Nederland","lat":51.98,"lon":5.9111,"population":162424},{"id":"2640729","name":"Oxford","country":"Verenigd Koninkrijk","lat":51.7522,"lon":-1.256,"population":162100},{"id":"3120635","name":"Hortaleza","country":"Spanje","lat":40.4744,"lon":-3.6411,"population":161661},{"id":"2641598","name":"Newport","country":"Verenigd Koninkrijk","lat":51.5877,"lon":-2.9983,"population":161506},{"id":"2747351","name":"'s-Hertogenbosch","country":"Nederland","lat":51.6992,"lon":5.3042,"population":160783},{"id":"715429","name":"Szeged","country":"Hongarije","lat":46.253,"lon":20.1482,"population":160766},{"id":"2803201","name":"Anderlecht","country":"België","lat":50.8362,"lon":4.3145,"population":160553},{"id":"700022","name":"Nyzhnodniprovsk","country":"Oekraïne","lat":48.4755,"lon":35.1167,"population":160123},{"id":"3021372","name":"Dijon","country":"Frankrijk","lat":47.3134,"lon":5.0139,"population":159941},{"id":"2988394","name":"Paris 16 Passy","country":"Frankrijk","lat":48.8637,"lon":2.2769,"population":159386},{"id":"2857458","name":"Oldenburg","country":"Duitsland","lat":53.1404,"lon":8.2148,"population":159218},{"id":"3034610","name":"Paris 17 Batignolles-Monceau","country":"Frankrijk","lat":48.8835,"lon":2.3219,"population":159212},{"id":"3014728","name":"Grenoble","country":"Frankrijk","lat":45.1787,"lon":5.7148,"population":158552},{"id":"12167218","name":"Avtozavodskyi","country":"Oekraïne","lat":49.0975,"lon":33.4321,"population":157382},{"id":"6544488","name":"San Blas-Canillejas","country":"Spanje","lat":40.4389,"lon":-3.6154,"population":157367},{"id":"2766824","name":"Salzburg","country":"Oostenrijk","lat":47.7994,"lon":13.044,"population":157245},{"id":"3174659","name":"Livorno","country":"Italië","lat":43.5443,"lon":10.3262,"population":157017},{"id":"617239","name":"Tiraspol","country":"Moldavië","lat":46.8428,"lon":29.6284,"population":157000},{"id":"2649997","name":"Enfield Town","country":"Verenigd Koninkrijk","lat":51.6515,"lon":-0.085,"population":156858},{"id":"2514169","name":"Marbella","country":"Spanje","lat":36.5154,"lon":-4.8858,"population":156295},{"id":"2633352","name":"York","country":"Verenigd Koninkrijk","lat":53.9576,"lon":-1.0827,"population":156135},{"id":"2686657","name":"Örebro","country":"Zweden","lat":59.2741,"lon":15.2066,"population":155989},{"id":"783920","name":"Zemun","country":"Servië","lat":44.8458,"lon":20.4012,"population":155591},{"id":"3345439","name":"Telford","country":"Verenigd Koninkrijk","lat":52.6766,"lon":-2.4493,"population":155570},{"id":"3108118","name":"Tetuán de las Victorias","country":"Spanje","lat":40.4597,"lon":-3.6975,"population":155000},{"id":"683902","name":"Brăila","country":"Roemenië","lat":45.2715,"lon":27.9743,"population":154686},{"id":"717582","name":"Miskolc","country":"Hongarije","lat":48.1033,"lon":20.7781,"population":154521},{"id":"146384","name":"Limassol","country":"Cyprus","lat":34.6841,"lon":33.0379,"population":154000},{"id":"2756071","name":"Enschede","country":"Nederland","lat":52.2183,"lon":6.8958,"population":153655},{"id":"2884161","name":"Kreuzberg","country":"Duitsland","lat":52.4997,"lon":13.4034,"population":153135},{"id":"2864118","name":"Neuss","country":"Duitsland","lat":51.1981,"lon":6.685,"population":152457},{"id":"2640101","name":"Poole","country":"Verenigd Koninkrijk","lat":50.7143,"lon":-1.9846,"population":151500},{"id":"2849483","name":"Regensburg","country":"Duitsland","lat":49.0151,"lon":12.1016,"population":151389},{"id":"3118150","name":"Logroño","country":"Spanje","lat":42.4661,"lon":-2.4512,"population":151164},{"id":"693821","name":"Sykhiv","country":"Oekraïne","lat":49.7943,"lon":24.0628,"population":151131},{"id":"13607718","name":"Zarichnyi","country":"Oekraïne","lat":50.9038,"lon":34.8093,"population":150694},{"id":"2511401","name":"La Laguna","country":"Spanje","lat":28.4853,"lon":-16.3201,"population":150661},{"id":"2521420","name":"Badajoz","country":"Spanje","lat":38.8779,"lon":-6.9706,"population":150530},{"id":"3190261","name":"Split","country":"Kroatië","lat":43.5089,"lon":16.4392,"population":149830},{"id":"6545326","name":"Ursynów","country":"Polen","lat":52.1505,"lon":21.0504,"population":149775},{"id":"6544494","name":"Madrid Centro","country":"Spanje","lat":40.4183,"lon":-3.7027,"population":149718},{"id":"2654264","name":"Burnley","country":"Verenigd Koninkrijk","lat":53.8,"lon":-2.2333,"population":149422},{"id":"2525473","name":"Cagliari","country":"Italië","lat":39.2305,"lon":9.1192,"population":149257},{"id":"2647425","name":"Harrow","country":"Verenigd Koninkrijk","lat":51.5784,"lon":-0.3321,"population":149246},{"id":"2646458","name":"Huddersfield","country":"Verenigd Koninkrijk","lat":53.649,"lon":-1.7842,"population":149017},{"id":"706524","name":"Kerch","country":"Oekraïne","lat":45.3567,"lon":36.4754,"population":148932},{"id":"2852217","name":"Prenzlauer Berg","country":"Duitsland","lat":52.5388,"lon":13.4244,"population":148878},{"id":"701404","name":"Melitopol","country":"Oekraïne","lat":46.8473,"lon":35.382,"population":148851},{"id":"6544487","name":"Arganzuela","country":"Spanje","lat":40.4002,"lon":-3.6962,"population":148797},{"id":"655194","name":"Jyväskylä","country":"Finland","lat":62.2415,"lon":25.7209,"population":148744},{"id":"3169361","name":"Rimini","country":"Italië","lat":44.0575,"lon":12.5653,"population":148688},{"id":"3137115","name":"Stavanger","country":"Noorwegen","lat":58.9701,"lon":5.7333,"population":148682},{"id":"2990363","name":"Nîmes","country":"Frankrijk","lat":43.8366,"lon":4.3579,"population":148236},{"id":"2650752","name":"Dundee","country":"Verenigd Koninkrijk","lat":56.4691,"lon":-2.9749,"population":148210},{"id":"6544102","name":"Sarrià-Sant Gervasi","country":"Spanje","lat":41.401,"lon":2.1394,"population":147912},{"id":"3024635","name":"Clermont-Ferrand","country":"Frankrijk","lat":45.7797,"lon":3.0868,"population":147865},{"id":"6544491","name":"Salamanca","country":"Spanje","lat":40.4297,"lon":-3.6797,"population":147707},{"id":"3173529","name":"Mestre","country":"Italië","lat":45.4917,"lon":12.2454,"population":147662},{"id":"13561779","name":"Shevchenko","country":"Oekraïne","lat":49.5645,"lon":34.5387,"population":147600},{"id":"789128","name":"Kragujevac","country":"Servië","lat":44.0167,"lon":20.9167,"population":147473},{"id":"711874","name":"Bohuniya","country":"Oekraïne","lat":50.2769,"lon":28.6096,"population":147324},{"id":"704508","name":"Kramatorsk","country":"Oekraïne","lat":48.7311,"lon":37.5678,"population":147145},{"id":"258576","name":"Lárisa","country":"Griekenland","lat":39.6285,"lon":22.4211,"population":146926},{"id":"3038354","name":"Aix-en-Provence","country":"Frankrijk","lat":43.5283,"lon":5.4497,"population":146821},{"id":"8533870","name":"Saint-Quentin-en-Yvelines","country":"Frankrijk","lat":48.7719,"lon":2.0189,"population":146598},{"id":"2655524","name":"Blackburn","country":"Verenigd Koninkrijk","lat":53.75,"lon":-2.4833,"population":146521},{"id":"3086800","name":"Ruda Śląska","country":"Polen","lat":50.2584,"lon":18.8563,"population":146189},{"id":"6544492","name":"Chamberí","country":"Spanje","lat":40.434,"lon":-3.7038,"population":145934},{"id":"2653941","name":"Cambridge","country":"Verenigd Koninkrijk","lat":52.2,"lon":0.1167,"population":145674},{"id":"3046526","name":"Pécs","country":"Hongarije","lat":46.0762,"lon":18.2281,"population":145347},{"id":"2655459","name":"Blackpool","country":"Verenigd Koninkrijk","lat":53.8167,"lon":-3.05,"population":145007},{"id":"3030300","name":"Brest","country":"Frankrijk","lat":48.3903,"lon":-4.4863,"population":144899},{"id":"2656194","name":"Basildon","country":"Verenigd Koninkrijk","lat":51.5684,"lon":0.4578,"population":144859},{"id":"3111108","name":"Salamanca","country":"Spanje","lat":40.9688,"lon":-5.6639,"population":144825},{"id":"3003603","name":"Le Mans","country":"Frankrijk","lat":48.0021,"lon":0.2025,"population":144515},{"id":"12808658","name":"Paris 11e Arrondissement","country":"Frankrijk","lat":48.8583,"lon":2.3795,"population":144292},{"id":"2516548","name":"Huelva","country":"Spanje","lat":37.2664,"lon":-6.94,"population":144258},{"id":"2907911","name":"Heidelberg","country":"Duitsland","lat":49.4077,"lon":8.6908,"population":143345},{"id":"2641181","name":"Norwich","country":"Verenigd Koninkrijk","lat":52.6278,"lon":1.2983,"population":143135},{"id":"3037854","name":"Amiens","country":"Frankrijk","lat":49.9,"lon":2.3,"population":143086},{"id":"2624886","name":"Aalborg","country":"Denemarken","lat":57.048,"lon":9.9187,"population":142937},{"id":"2642607","name":"Middlesbrough","country":"Verenigd Koninkrijk","lat":54.5762,"lon":-1.2348,"population":142707},{"id":"3110876","name":"Sant Andreu","country":"Spanje","lat":41.4354,"lon":2.1898,"population":142598},{"id":"3086586","name":"Rybnik","country":"Polen","lat":50.0971,"lon":18.5418,"population":142510},{"id":"3188582","name":"Tuzla","country":"Bosnië en Herzegovina","lat":44.5384,"lon":18.6671,"population":142486},{"id":"13607717","name":"Kovpakivskyi","country":"Oekraïne","lat":50.9251,"lon":34.7948,"population":142447},{"id":"2855745","name":"Paderborn","country":"Duitsland","lat":51.7191,"lon":8.7544,"population":142161},{"id":"2972191","name":"Tours","country":"Frankrijk","lat":47.3948,"lon":0.704,"population":141621},{"id":"3108288","name":"Tarragona","country":"Spanje","lat":41.1191,"lon":1.2454,"population":141542},{"id":"13607966","name":"Circoiscrizione II","country":"Italië","lat":45.0501,"lon":7.6405,"population":141344},{"id":"2655237","name":"Bolton","country":"Verenigd Koninkrijk","lat":53.5833,"lon":-2.4333,"population":141331},{"id":"670609","name":"Piteşti","country":"Roemenië","lat":44.85,"lon":24.8667,"population":141275},{"id":"6544490","name":"Usera","country":"Spanje","lat":40.3887,"lon":-3.7003,"population":141189},{"id":"2998286","name":"Limoges","country":"Frankrijk","lat":45.8336,"lon":1.2476,"population":141176},{"id":"755330","name":"Wola","country":"Polen","lat":52.2348,"lon":20.96,"population":140958},{"id":"3118514","name":"Lleida","country":"Spanje","lat":41.6167,"lon":0.6222,"population":140797},{"id":"2740637","name":"Coimbra","country":"Portugal","lat":40.2069,"lon":-8.42,"population":140796},{"id":"12808663","name":"Paris 12e Arrondissement","country":"Frankrijk","lat":48.8352,"lon":2.435,"population":140311},{"id":"2744114","name":"Zaanstad","country":"Nederland","lat":52.4531,"lon":4.8136,"population":140085},{"id":"3125239","name":"Chamartín","country":"Spanje","lat":40.4621,"lon":-3.6766,"population":140000},{"id":"255524","name":"Peristéri","country":"Griekenland","lat":38.0154,"lon":23.6919,"population":139981},{"id":"2759821","name":"Amersfoort","country":"Nederland","lat":52.155,"lon":5.3875,"population":139914},{"id":"2675408","name":"Sollentuna","country":"Zweden","lat":59.428,"lon":17.9509,"population":139606},{"id":"13561145","name":"Kyivskyi","country":"Oekraïne","lat":48.0465,"lon":37.7757,"population":139177},{"id":"2659994","name":"Lausanne","country":"Zwitserland","lat":46.516,"lon":6.6328,"population":139111},{"id":"2636882","name":"Stockport","country":"Verenigd Koninkrijk","lat":53.4098,"lon":-2.1576,"population":139052},{"id":"7284824","name":"Budapest XI. kerület","country":"Hongarije","lat":47.476,"lon":19.036,"population":139049},{"id":"2986082","name":"Paris 11 Popincourt","country":"Frankrijk","lat":48.8574,"lon":2.3795,"population":138170},{"id":"2983854","name":"Paris 12 Reuilly","country":"Frankrijk","lat":48.8412,"lon":2.3876,"population":138024},{"id":"261745","name":"Irákleion","country":"Griekenland","lat":35.3279,"lon":25.1434,"population":137154},{"id":"3176885","name":"Foggia","country":"Italië","lat":41.4584,"lon":15.5519,"population":137032},{"id":"2759706","name":"Apeldoorn","country":"Nederland","lat":52.21,"lon":5.9694,"population":136670},{"id":"2989781","name":"Paris 14 Observatoire","country":"Frankrijk","lat":48.8331,"lon":2.3264,"population":136455},{"id":"685948","name":"Bacău","country":"Roemenië","lat":46.5672,"lon":26.9138,"population":136087},{"id":"630376","name":"Barysaw","country":"Wit-Rusland","lat":54.2279,"lon":28.505,"population":135696},{"id":"667268","name":"Sibiu","country":"Roemenië","lat":45.8,"lon":24.15,"population":134309},{"id":"13607972","name":"Circoiscrizione VIII","country":"Italië","lat":45.0379,"lon":7.6717,"population":134028},{"id":"2805615","name":"Würzburg","country":"Duitsland","lat":49.7939,"lon":9.9512,"population":133731},{"id":"2646914","name":"High Wycombe","country":"Verenigd Koninkrijk","lat":51.6291,"lon":-0.7493,"population":133204},{"id":"2787149","name":"Schaerbeek","country":"België","lat":50.8693,"lon":4.3774,"population":132761},{"id":"2753801","name":"Hoofddorp","country":"Nederland","lat":52.3025,"lon":4.6889,"population":132734},{"id":"2775220","name":"Innsbruck","country":"Oostenrijk","lat":47.2627,"lon":11.3945,"population":132493},{"id":"2648404","name":"Gloucester","country":"Verenigd Koninkrijk","lat":51.8657,"lon":-2.2431,"population":132416},{"id":"2923544","name":"Fürth","country":"Duitsland","lat":49.4759,"lon":10.9886,"population":132036},{"id":"3177090","name":"Ferrara","country":"Italië","lat":44.838,"lon":11.6206,"population":132009},{"id":"776029","name":"Bielany","country":"Polen","lat":52.2924,"lon":20.9353,"population":131910},{"id":"2968254","name":"Villeurbanne","country":"Frankrijk","lat":45.766,"lon":4.8795,"population":131445},{"id":"2649808","name":"Exeter","country":"Verenigd Koninkrijk","lat":50.7236,"lon":-3.5275,"population":130709},{"id":"13607967","name":"Circoiscrizione III","country":"Italië","lat":45.0628,"lon":7.6307,"population":130709},{"id":"2652618","name":"Colchester","country":"Verenigd Koninkrijk","lat":51.8892,"lon":0.9042,"population":130245},{"id":"602150","name":"Umeå","country":"Zweden","lat":63.8284,"lon":20.2597,"population":130224},{"id":"2635608","name":"Tottenham","country":"Verenigd Koninkrijk","lat":51.6037,"lon":-0.0679,"population":130000},{"id":"3042430","name":"Zugló","country":"Hongarije","lat":47.5176,"lon":19.1055,"population":130000},{"id":"3082914","name":"Tychy","country":"Polen","lat":50.1372,"lon":18.9664,"population":130000},{"id":"2743477","name":"Zwolle","country":"Nederland","lat":52.5125,"lon":6.0944,"population":129840},{"id":"2638671","name":"Salford","country":"Verenigd Koninkrijk","lat":53.4877,"lon":-2.2904,"population":129794},{"id":"3183539","name":"Acilia-Castel Fusano-Ostia Antica","country":"Italië","lat":41.7634,"lon":12.3308,"population":129362},{"id":"2940187","name":"Charlottenburg","country":"Duitsland","lat":52.5167,"lon":13.2833,"population":129359},{"id":"3052009","name":"Győr","country":"Hongarije","lat":47.6833,"lon":17.6351,"population":129301},{"id":"776103","name":"Białołeka","country":"Polen","lat":52.3213,"lon":20.972,"population":129106},{"id":"2267095","name":"Leiria","country":"Portugal","lat":39.7436,"lon":-8.8071,"population":128640},{"id":"3033123","name":"Besançon","country":"Frankrijk","lat":47.2488,"lon":6.0182,"population":128426},{"id":"2664454","name":"Västerås","country":"Zweden","lat":59.6162,"lon":16.5528,"population":127799},{"id":"2641674","name":"Newcastle under Lyme","country":"Verenigd Koninkrijk","lat":53.0,"lon":-2.2333,"population":127727},{"id":"3090048","name":"Opole","country":"Polen","lat":50.6712,"lon":17.926,"population":127676},{"id":"3099759","name":"Elbląg","country":"Polen","lat":54.1522,"lon":19.4088,"population":127558},{"id":"3088825","name":"Płock","country":"Polen","lat":52.5468,"lon":19.7064,"population":127474},{"id":"3082707","name":"Wałbrzych","country":"Polen","lat":50.7714,"lon":16.2843,"population":127431},{"id":"13580316","name":"Mykilska Borshchahivka","country":"Oekraïne","lat":50.4264,"lon":30.3744,"population":127400},{"id":"2676209","name":"Södermalm","country":"Zweden","lat":59.3128,"lon":18.0758,"population":127323},{"id":"3117164","name":"Mataró","country":"Spanje","lat":41.5421,"lon":2.4445,"population":126988},{"id":"3104748","name":"Villaverde","country":"Spanje","lat":40.35,"lon":-3.7,"population":126802},{"id":"13607969","name":"Circoiscrizione V","country":"Italië","lat":45.1015,"lon":7.6554,"population":126666},{"id":"2637546","name":"Solihull","country":"Verenigd Koninkrijk","lat":52.4143,"lon":-1.7809,"population":126577},{"id":"13607661","name":"Vilkhivskyi","country":"Oekraïne","lat":48.5433,"lon":39.282,"population":126340},{"id":"6544495","name":"Retiro","country":"Spanje","lat":40.4132,"lon":-3.6831,"population":126058},{"id":"3168673","name":"Salerno","country":"Italië","lat":40.6754,"lon":14.7933,"population":125797},{"id":"2634677","name":"Watford","country":"Verenigd Koninkrijk","lat":51.6553,"lon":-0.396,"population":125707},{"id":"650224","name":"Kuopio","country":"Finland","lat":62.8924,"lon":27.677,"population":125462},{"id":"2638703","name":"Saint Peters","country":"Verenigd Koninkrijk","lat":51.3667,"lon":1.4167,"population":125370},{"id":"618605","name":"Bălţi","country":"Moldavië","lat":47.7629,"lon":27.9285,"population":125000},{"id":"3118532","name":"León","country":"Spanje","lat":42.6,"lon":-5.5703,"population":124772},{"id":"2751792","name":"Leeuwarden","country":"Nederland","lat":53.2027,"lon":5.8097,"population":124481},{"id":"3172629","name":"Monza","country":"Italië","lat":45.58,"lon":9.2725,"population":124398},{"id":"623549","name":"Pinsk","country":"Wit-Rusland","lat":52.1215,"lon":26.0673,"population":124295},{"id":"757065","name":"Targówek","country":"Polen","lat":52.2918,"lon":21.0484,"population":124279},{"id":"2652053","name":"Crawley","country":"Verenigd Koninkrijk","lat":51.113,"lon":-0.1831,"population":124008},{"id":"776251","name":"Bemowo","country":"Polen","lat":52.2546,"lon":20.9084,"population":123932},{"id":"2994160","name":"Metz","country":"Frankrijk","lat":49.1191,"lon":6.1727,"population":123914},{"id":"7284842","name":"Budapest III. kerület","country":"Hongarije","lat":47.5416,"lon":19.045,"population":123723},{"id":"2510542","name":"Telde","country":"Spanje","lat":27.9924,"lon":-15.4192,"population":123265},{"id":"2806654","name":"Wolfsburg","country":"Duitsland","lat":52.4245,"lon":10.7815,"population":123064},{"id":"2518794","name":"Dos Hermanas","country":"Spanje","lat":37.2829,"lon":-5.9209,"population":122943},{"id":"2836788","name":"Schöneberg","country":"Duitsland","lat":52.498,"lon":13.3443,"population":122658},{"id":"2849647","name":"Recklinghausen","country":"Duitsland","lat":51.6138,"lon":7.1974,"population":122438},{"id":"2751283","name":"Maastricht","country":"Nederland","lat":50.8483,"lon":5.6889,"population":122378},{"id":"2654200","name":"Burton upon Trent","country":"Verenigd Koninkrijk","lat":52.8073,"lon":-1.6426,"population":122199},{"id":"13607724","name":"Livoberezhnyi","country":"Oekraïne","lat":47.1093,"lon":37.6431,"population":122175},{"id":"2918632","name":"Göttingen","country":"Duitsland","lat":51.5344,"lon":9.9323,"population":122149},{"id":"2661552","name":"Bern","country":"Zwitserland","lat":46.9481,"lon":7.4474,"population":121631},{"id":"649360","name":"Lahti","country":"Finland","lat":60.9827,"lon":25.6615,"population":121622},{"id":"2523083","name":"Siracusa","country":"Italië","lat":37.0754,"lon":15.2866,"population":121605},{"id":"726848","name":"Stara Zagora","country":"Bulgarije","lat":42.432,"lon":25.6426,"population":121582},{"id":"3121245","name":"Gràcia","country":"Spanje","lat":41.4024,"lon":2.1564,"population":121502},{"id":"2522013","name":"Algeciras","country":"Spanje","lat":36.1333,"lon":-5.4505,"population":121414},{"id":"3182164","name":"Bergamo","country":"Italië","lat":45.696,"lon":9.6672,"population":121200},{"id":"727523","name":"Ruse","country":"Bulgarije","lat":43.8487,"lon":25.9534,"population":121168},{"id":"2907669","name":"Heilbronn","country":"Duitsland","lat":49.1399,"lon":9.2205,"population":120733},{"id":"3165243","name":"Trento","country":"Italië","lat":46.0679,"lon":11.1211,"population":120709},{"id":"2895992","name":"Ingolstadt","country":"Duitsland","lat":48.7651,"lon":11.4237,"population":120658},{"id":"2820256","name":"Ulm","country":"Duitsland","lat":48.3984,"lon":9.9916,"population":120451},{"id":"3081741","name":"Włocławek","country":"Polen","lat":52.6482,"lon":19.0678,"population":120339},{"id":"3171180","name":"Perugia","country":"Italië","lat":43.1122,"lon":12.3888,"population":120137},{"id":"9983718","name":"Cheremushky","country":"Oekraïne","lat":46.4325,"lon":30.7115,"population":120000},{"id":"2945756","name":"Bottrop","country":"Duitsland","lat":51.5239,"lon":6.9285,"population":119909},{"id":"2751773","name":"Leiden","country":"Nederland","lat":52.1583,"lon":4.4931,"population":119713},{"id":"7290243","name":"Bergedorf","country":"Duitsland","lat":53.4846,"lon":10.229,"population":119665},{"id":"3171168","name":"Pescara","country":"Italië","lat":42.4584,"lon":14.2028,"population":119554},{"id":"2853969","name":"Pforzheim","country":"Duitsland","lat":48.8844,"lon":8.6989,"population":119313},{"id":"2756669","name":"Dordrecht","country":"Nederland","lat":51.81,"lon":4.6736,"population":119260},{"id":"2857807","name":"Offenbach","country":"Duitsland","lat":50.1006,"lon":8.7665,"population":119192},{"id":"3413829","name":"Reykjavík","country":"IJsland","lat":64.1355,"lon":-21.8954,"population":118918},{"id":"2653261","name":"Cheltenham","country":"Verenigd Koninkrijk","lat":51.9001,"lon":-2.0797,"population":118836},{"id":"3109981","name":"Santa Coloma de Gramenet","country":"Spanje","lat":41.4515,"lon":2.2081,"population":118821},{"id":"2944368","name":"Bremerhaven","country":"Duitsland","lat":53.5536,"lon":8.5755,"population":118610},{"id":"2800931","name":"Brugge","country":"België","lat":51.2089,"lon":3.2242,"population":118509},{"id":"3080165","name":"Zielona Góra","country":"Polen","lat":51.9355,"lon":15.5064,"population":118433},{"id":"13607719","name":"Tsentralno-Miskyi","country":"Oekraïne","lat":48.3024,"lon":38.0316,"population":118283},{"id":"2262963","name":"Setúbal","country":"Portugal","lat":38.5244,"lon":-8.8882,"population":118166},{"id":"3107784","name":"Torrejón de Ardoz","country":"Spanje","lat":40.4554,"lon":-3.4697,"population":118162},{"id":"2924573","name":"Friedrichshain","country":"Duitsland","lat":52.5156,"lon":13.4548,"population":117829},{"id":"757026","name":"Tarnów","country":"Polen","lat":50.0138,"lon":20.987,"population":117799},{"id":"716935","name":"Nyíregyháza","country":"Hongarije","lat":47.9554,"lon":21.7167,"population":117689},{"id":"2639093","name":"Rotherham","country":"Verenigd Koninkrijk","lat":53.4301,"lon":-1.3568,"population":117618},{"id":"3149318","name":"Kristiansand","country":"Noorwegen","lat":58.1467,"lon":7.9956,"population":117237},{"id":"2848273","name":"Remscheid","country":"Duitsland","lat":51.1798,"lon":7.1925,"population":117118},{"id":"792078","name":"Čačak","country":"Servië","lat":43.8914,"lon":20.3497,"population":117072},{"id":"2520600","name":"Cadiz","country":"Spanje","lat":36.5267,"lon":-6.2891,"population":116979},{"id":"3100796","name":"Dąbrowa Górnicza","country":"Polen","lat":50.3339,"lon":19.2048,"population":116971},{"id":"13607653","name":"Smolyanskyi","country":"Oekraïne","lat":48.0144,"lon":37.7359,"population":116779},{"id":"3176746","name":"Forlì","country":"Italië","lat":44.2218,"lon":12.0414,"population":116696},{"id":"6544099","name":"Moncloa-Aravaca","country":"Spanje","lat":40.4355,"lon":-3.7317,"population":116531},{"id":"2989317","name":"Orléans","country":"Frankrijk","lat":47.9025,"lon":1.9041,"population":116344},{"id":"2982652","name":"Rouen","country":"Frankrijk","lat":49.4431,"lon":1.0993,"population":116331},{"id":"3130583","name":"Alcobendas","country":"Spanje","lat":40.5475,"lon":-3.642,"population":116037},{"id":"2743856","name":"Zoetermeer","country":"Nederland","lat":52.0575,"lon":4.4931,"population":115845},{"id":"3114256","name":"Parla","country":"Spanje","lat":40.236,"lon":-3.7675,"population":115611},{"id":"690548","name":"Uzhhorod","country":"Oekraïne","lat":48.6242,"lon":22.2947,"population":115449},{"id":"3183719","name":"Vlorë","country":"Albanië","lat":40.4696,"lon":19.4838,"population":115261},{"id":"3098722","name":"Gorzów Wielkopolski","country":"Polen","lat":52.7337,"lon":15.225,"population":114567},{"id":"13609094","name":"Korolyov","country":"Oekraïne","lat":50.2449,"lon":28.7001,"population":114034},{"id":"2633521","name":"Worthing","country":"Verenigd Koninkrijk","lat":50.818,"lon":-0.3754,"population":113866},{"id":"2651123","name":"Doncaster","country":"Verenigd Koninkrijk","lat":53.5228,"lon":-1.1312,"population":113566},{"id":"7284830","name":"Budapest XIII. kerület","country":"Hongarije","lat":47.5298,"lon":19.0807,"population":113531},{"id":"2862375","name":"Nippes","country":"Duitsland","lat":50.9654,"lon":6.9531,"population":113487},{"id":"2516395","name":"Jaén","country":"Spanje","lat":37.7692,"lon":-3.7903,"population":113457},{"id":"3101619","name":"Chorzów","country":"Polen","lat":50.3058,"lon":18.9742,"population":113430},{"id":"2852566","name":"Porz am Rhein","country":"Duitsland","lat":50.8864,"lon":7.0583,"population":113415},{"id":"2653225","name":"Chesterfield","country":"Verenigd Koninkrijk","lat":53.25,"lon":-1.4167,"population":113057},{"id":"2702979","name":"Jönköping","country":"Zweden","lat":57.7814,"lon":14.1562,"population":112766},{"id":"2847736","name":"Reutlingen","country":"Duitsland","lat":48.4914,"lon":9.2043,"population":112627},{"id":"667873","name":"Satu Mare","country":"Roemenië","lat":47.7993,"lon":22.8625,"population":112490},{"id":"3058213","name":"Petržalka","country":"Slowakije","lat":48.1233,"lon":17.1287,"population":112380},{"id":"3164419","name":"Vicenza","country":"Italië","lat":45.5467,"lon":11.5475,"population":111980},{"id":"2657970","name":"Winterthur","country":"Zwitserland","lat":47.5056,"lon":8.7241,"population":111840},{"id":"2653266","name":"Chelmsford","country":"Verenigd Koninkrijk","lat":51.7358,"lon":0.4696,"population":111511},{"id":"2873074","name":"Marzahn","country":"Duitsland","lat":52.5453,"lon":13.5698,"population":111508},{"id":"2991214","name":"Mulhouse","country":"Frankrijk","lat":47.752,"lon":7.3287,"population":111430},{"id":"2992090","name":"Montreuil","country":"Frankrijk","lat":48.8642,"lon":2.4432,"population":111240},{"id":"3165771","name":"Terni","country":"Italië","lat":42.5633,"lon":12.6433,"population":111189},{"id":"2790471","name":"Namur","country":"België","lat":50.4669,"lon":4.8675,"population":110939},{"id":"2987914","name":"Perpignan","country":"Frankrijk","lat":42.6976,"lon":2.8954,"population":110706},{"id":"3029241","name":"Caen","country":"Frankrijk","lat":49.1859,"lon":-0.3591,"population":110624},{"id":"13561778","name":"Kyivskyi","country":"Oekraïne","lat":49.609,"lon":34.5293,"population":110600},{"id":"6615440","name":"Delicias","country":"Spanje","lat":41.6493,"lon":-0.9076,"population":110520},{"id":"618577","name":"Bender","country":"Moldavië","lat":46.8316,"lon":29.4767,"population":110175},{"id":"8593863","name":"Rodenkirchen","country":"Duitsland","lat":50.8933,"lon":6.9948,"population":110158},{"id":"6947756","name":"Mendip","country":"Verenigd Koninkrijk","lat":51.2372,"lon":-2.6266,"population":110000},{"id":"3170647","name":"Pisa","country":"Italië","lat":43.7085,"lon":10.4036,"population":109960},{"id":"2636486","name":"Sutton Coldfield","country":"Verenigd Koninkrijk","lat":52.5667,"lon":-1.8167,"population":109899},{"id":"3050434","name":"Kecskemét","country":"Hongarije","lat":46.9062,"lon":19.6913,"population":109847},{"id":"711390","name":"Brovary","country":"Oekraïne","lat":50.5181,"lon":30.8067,"population":109806},{"id":"2634910","name":"Wakefield","country":"Verenigd Koninkrijk","lat":53.6833,"lon":-1.4977,"population":109766},{"id":"2634838","name":"Walthamstow","country":"Verenigd Koninkrijk","lat":51.5907,"lon":-0.0208,"population":109424},{"id":"3031137","name":"Boulogne-Billancourt","country":"Frankrijk","lat":48.8355,"lon":2.2413,"population":108782},{"id":"3096880","name":"Kalisz","country":"Polen","lat":51.7611,"lon":18.091,"population":108759},{"id":"685826","name":"Baia Mare","country":"Roemenië","lat":47.6573,"lon":23.5681,"population":108759},{"id":"2651621","name":"Dagenham","country":"Verenigd Koninkrijk","lat":51.55,"lon":0.1667,"population":108368},{"id":"3191648","name":"Rijeka","country":"Kroatië","lat":45.3267,"lon":14.4424,"population":107964},{"id":"2656192","name":"Basingstoke","country":"Verenigd Koninkrijk","lat":51.2625,"lon":-1.0871,"population":107642},{"id":"2643179","name":"Maidstone","country":"Verenigd Koninkrijk","lat":51.2667,"lon":0.5167,"population":107627},{"id":"3095049","name":"Koszalin","country":"Polen","lat":54.1944,"lon":16.1722,"population":107450},{"id":"3181913","name":"Bolzano","country":"Italië","lat":46.4907,"lon":11.3398,"population":107436},{"id":"13607970","name":"Circoiscrizione VI","country":"Italië","lat":45.1022,"lon":7.7003,"population":107369},{"id":"2886946","name":"Koblenz","country":"Duitsland","lat":50.3536,"lon":7.5788,"population":107319},{"id":"2832495","name":"Siegen","country":"Duitsland","lat":50.8748,"lon":8.0243,"population":107242},{"id":"13607657","name":"Hirnytskyi","country":"Oekraïne","lat":48.0211,"lon":37.9691,"population":107216},{"id":"789225","name":"Mitrovicë","country":"Kosovo","lat":42.8833,"lon":20.8667,"population":107045},{"id":"688105","name":"Yevpatoriya","country":"Oekraïne","lat":45.2009,"lon":33.3665,"population":107040},{"id":"2656046","name":"Bedford","country":"Verenigd Koninkrijk","lat":52.1346,"lon":-0.4663,"population":106940},{"id":"712451","name":"Berdyansk","country":"Oekraïne","lat":46.7558,"lon":36.7882,"population":106311},{"id":"2950349","name":"Bergisch Gladbach","country":"Duitsland","lat":50.9856,"lon":7.133,"population":106184},{"id":"713716","name":"Alchevsk","country":"Oekraïne","lat":48.4689,"lon":38.8167,"population":106062},{"id":"3093692","name":"Legnica","country":"Polen","lat":51.2101,"lon":16.1619,"population":106033},{"id":"2267827","name":"Funchal","country":"Portugal","lat":32.6657,"lon":-16.9255,"population":105795},{"id":"3114965","name":"Ourense","country":"Spanje","lat":42.3367,"lon":-7.8641,"population":105233},{"id":"700051","name":"Nikopol","country":"Oekraïne","lat":47.5683,"lon":34.3913,"population":105160},{"id":"625324","name":"Mazyr","country":"Wit-Rusland","lat":52.0416,"lon":29.2163,"population":105152},{"id":"693468","name":"Slovyansk","country":"Oekraïne","lat":48.8497,"lon":37.5974,"population":105141},{"id":"2990999","name":"Nancy","country":"Frankrijk","lat":48.6844,"lon":6.185,"population":105058},{"id":"3159016","name":"Drammen","country":"Noorwegen","lat":59.7439,"lon":10.2045,"population":105042},{"id":"2842150","name":"Salzgitter","country":"Duitsland","lat":52.157,"lon":10.4154,"population":104970},{"id":"3116156","name":"Moratalaz","country":"Spanje","lat":40.4074,"lon":-3.6494,"population":104923},{"id":"2895044","name":"Jena","country":"Duitsland","lat":50.9288,"lon":11.5899,"population":104712},{"id":"2921232","name":"Gera","country":"Duitsland","lat":50.8803,"lon":12.0819,"population":104659},{"id":"2769359","name":"Ottakring","country":"Oostenrijk","lat":48.2167,"lon":16.3,"population":104627},{"id":"3194828","name":"Mostar","country":"Bosnië en Herzegovina","lat":43.3433,"lon":17.8081,"population":104518},{"id":"13580094","name":"Pozniaky","country":"Oekraïne","lat":50.4026,"lon":30.6235,"population":104400},{"id":"2706767","name":"Helsingborg","country":"Zweden","lat":56.0467,"lon":12.6944,"population":104250},{"id":"626081","name":"Lida","country":"Wit-Rusland","lat":53.8833,"lon":25.2997,"population":103916},{"id":"2633709","name":"Woking","country":"Verenigd Koninkrijk","lat":51.319,"lon":-0.5589,"population":103900},{"id":"2644487","name":"Lincoln","country":"Verenigd Koninkrijk","lat":53.2268,"lon":-0.5379,"population":103813},{"id":"3171058","name":"Piacenza","country":"Italië","lat":45.0524,"lon":9.6934,"population":103607},{"id":"2732265","name":"Viseu","country":"Portugal","lat":40.6617,"lon":-7.909,"population":103502},{"id":"2870221","name":"Moers","country":"Duitsland","lat":51.4534,"lon":6.6326,"population":103487},{"id":"683123","name":"Buzău","country":"Roemenië","lat":45.15,"lon":26.8333,"population":103481},{"id":"3111933","name":"Reus","country":"Spanje","lat":41.1561,"lon":1.1069,"population":103477},{"id":"2264268","name":"Queluz","country":"Portugal","lat":38.7566,"lon":-9.2545,"population":103399},{"id":"13561144","name":"Kalynivskyi","country":"Oekraïne","lat":48.0074,"lon":37.8538,"population":103249},{"id":"2634491","name":"West Bromwich","country":"Verenigd Koninkrijk","lat":52.5187,"lon":-1.9945,"population":103112},{"id":"2904789","name":"Hildesheim","country":"Duitsland","lat":52.1508,"lon":9.9511,"population":103052},{"id":"13561150","name":"Chumakivskyi","country":"Oekraïne","lat":47.9567,"lon":37.9419,"population":103005},{"id":"3071961","name":"Liberec","country":"Tsjechië","lat":50.7671,"lon":15.0562,"population":102951},{"id":"624079","name":"Orsha","country":"Wit-Rusland","lat":54.5136,"lon":30.4036,"population":102759},{"id":"6543969","name":"Lyon 03","country":"Frankrijk","lat":45.7612,"lon":4.8518,"population":102725},{"id":"670889","name":"Piatra Neamţ","country":"Roemenië","lat":46.9167,"lon":26.3333,"population":102688},{"id":"2929567","name":"Erlangen","country":"Duitsland","lat":49.591,"lon":11.0078,"population":102675},{"id":"13645605","name":"Skhidni Kvartaly","country":"Oekraïne","lat":48.5662,"lon":39.3826,"population":102500},{"id":"6544106","name":"Ciutat Vella","country":"Spanje","lat":41.3802,"lon":2.1732,"population":102347},{"id":"6545310","name":"Mitte","country":"Duitsland","lat":52.52,"lon":13.4049,"population":102338},{"id":"2745641","name":"Venlo","country":"Nederland","lat":51.37,"lon":6.1681,"population":101988},{"id":"3172189","name":"Novara","country":"Italië","lat":45.4469,"lon":8.6212,"population":101916},{"id":"2808473","name":"Wilmersdorf","country":"Duitsland","lat":52.4833,"lon":13.3167,"population":101877},{"id":"2650497","name":"Eastbourne","country":"Verenigd Koninkrijk","lat":50.7687,"lon":0.2845,"population":101689},{"id":"2633563","name":"Worcester","country":"Verenigd Koninkrijk","lat":52.1893,"lon":-2.22,"population":101659},{"id":"3044774","name":"Székesfehérvár","country":"Hongarije","lat":47.19,"lon":18.4103,"population":101600},{"id":"13607720","name":"Kindrativskyi","country":"Oekraïne","lat":48.3028,"lon":38.0547,"population":101565},{"id":"2656173","name":"Bath","country":"Verenigd Koninkrijk","lat":51.3751,"lon":-2.3617,"population":101557},{"id":"13607723","name":"Kalmiuskyi","country":"Oekraïne","lat":47.1105,"lon":37.5438,"population":101498},{"id":"3037044","name":"Argenteuil","country":"Frankrijk","lat":48.9479,"lon":2.2474,"population":101475},{"id":"697889","name":"Pavlohrad","country":"Oekraïne","lat":48.5321,"lon":35.8688,"population":101430},{"id":"2765028","name":"Simmering","country":"Oostenrijk","lat":48.1833,"lon":16.4333,"population":101420},{"id":"2513076","name":"Orihuela","country":"Spanje","lat":38.0848,"lon":-0.944,"population":101321},{"id":"2648657","name":"Gillingham","country":"Verenigd Koninkrijk","lat":51.3891,"lon":0.5486,"population":101187},{"id":"2792482","name":"Leuven","country":"België","lat":50.8796,"lon":4.7009,"population":101032},{"id":"783263","name":"Elbasan","country":"Albanië","lat":41.1114,"lon":20.0822,"population":100903},{"id":"13535745","name":"Pechersk","country":"Oekraïne","lat":50.4444,"lon":30.5235,"population":100900},{"id":"3182884","name":"Arezzo","country":"Italië","lat":43.4628,"lon":11.8807,"population":100734},{"id":"3043470","name":"Újpest","country":"Hongarije","lat":47.5686,"lon":19.0846,"population":100694},{"id":"261414","name":"Kallithéa","country":"Griekenland","lat":37.95,"lon":23.7,"population":100641},{"id":"12500938","name":"Oleksiyivka","country":"Oekraïne","lat":50.0452,"lon":36.1932,"population":100500},{"id":"3109453","name":"Barakaldo","country":"Spanje","lat":43.2964,"lon":-2.9881,"population":100435},{"id":"13561149","name":"Oleksandrivskyi","country":"Oekraïne","lat":47.9679,"lon":37.8034,"population":100330},{"id":"2774326","name":"Klagenfurt am Wörthersee","country":"Oostenrijk","lat":46.6247,"lon":14.3053,"population":100316},{"id":"3121456","name":"Girona","country":"Spanje","lat":41.9831,"lon":2.8249,"population":100266},{"id":"3165072","name":"Udine","country":"Italië","lat":46.0693,"lon":13.2371,"population":100170},{"id":"2821164","name":"Trier","country":"Duitsland","lat":49.7557,"lon":6.6394,"population":100129},{"id":"6690870","name":"Becontree","country":"Verenigd Koninkrijk","lat":51.5529,"lon":0.129,"population":100000},{"id":"3189595","name":"Subotica","country":"Servië","lat":46.1,"lon":19.6667,"population":100000}]